[
  {
    "name": "Донецк",
    "lat": 48.0028,
    "lng": 37.8053,
    "population": 929063,
    "subject": "Донецкая Народная Республика"
  },
  {
    "name": "Мариуполь",
    "lat": 47.0971,
    "lng": 37.5434,
    "population": 425681,
    "subject": "Донецкая Народная Республика"
  },
  {
    "name": "Макеевка",
    "lat": 48.0476,
    "lng": 37.9635,
    "population": 340601,
    "subject": "Донецкая Народная Республика"
  },
  {
    "name": "Горловка",
    "lat": 48.3056,
    "lng": 38.0531,
    "population": 256151,
    "subject": "Донецкая Народная Республика"
  },
  {
    "name": "Енакиево",
    "lat": 48.2172,
    "lng": 37.9169,
    "population": 76673,
    "subject": "Донецкая Народная Республика"
  },
  {
    "name": "Харцызск",
    "lat": 48.0428,
    "lng": 38.1478,
    "population": 57760,
    "subject": "Донецкая Народная Республика"
  },
  {
    "name": "Торез",
    "lat": 48.024,
    "lng": 38.643,
    "population": 58455,
    "subject": "Донецкая Народная Республика"
  },
  {
    "name": "Шахтёрск",
    "lat": 48.0575,
    "lng": 38.4383,
    "population": 48155,
    "subject": "Донецкая Народная Республика"
  },
  {
    "name": "Снежное",
    "lat": 48.0278,
    "lng": 38.7722,
    "population": 45679,
    "subject": "Донецкая Народная Республика"
  },
  {
    "name": "Ясиноватая",
    "lat": 48.1292,
    "lng": 37.6894,
    "population": 30559,
    "subject": "Донецкая Народная Республика"
  },
  {
    "name": "Луганск",
    "lat": 48.574,
    "lng": 39.3078,
    "population": 425681,
    "subject": "Луганская Народная Республика"
  },
  {
    "name": "Алчевск",
    "lat": 48.4689,
    "lng": 38.7989,
    "population": 106062,
    "subject": "Луганская Народная Республика"
  },
  {
    "name": "Красный Луч",
    "lat": 48.1394,
    "lng": 38.9375,
    "population": 72634,
    "subject": "Луганская Народная Республика"
  },
  {
    "name": "Стаханов",
    "lat": 48.5686,
    "lng": 38.6436,
    "population": 75000,
    "subject": "Луганская Народная Республика"
  },
  {
    "name": "Свердловск",
    "lat": 48.0778,
    "lng": 39.65,
    "population": 64000,
    "subject": "Луганская Народная Республика"
  },
  {
    "name": "Краснодон",
    "lat": 48.2922,
    "lng": 39.7172,
    "population": 64643,
    "subject": "Луганская Народная Республика"
  },
  {
    "name": "Ровеньки",
    "lat": 48.0833,
    "lng": 39.3667,
    "population": 47750,
    "subject": "Луганская Народная Республика"
  },
  {
    "name": "Антрацит",
    "lat": 48.1167,
    "lng": 39.0833,
    "population": 55000,
    "subject": "Луганская Народная Республика"
  },
  {
    "name": "Брянка",
    "lat": 48.5133,
    "lng": 38.6536,
    "population": 47910,
    "subject": "Луганская Народная Республика"
  },
  {
    "name": "Первомайск",
    "lat": 48.6333,
    "lng": 38.55,
    "population": 38000,
    "subject": "Луганская Народная Республика"
  },
  {
    "name": "Черниговка",
    "lat": 44.3393,
    "lng": 132.5795,
    "population": 10124,
    "subject": "Приморский край"
  }
]
